$GPGGA,081808.853,3115.632,N,07542.453,E,1,12,1.0,0.0,M,0.0,M,,*6E
$GPGSA,A,3,01,02,03,04,05,06,07,08,09,10,11,12,1.0,1.0,1.0*30
$GPRMC,081808.853,A,3115.632,N,07542.453,E,049.1,212.9,140420,000.0,W*7D
$GPGGA,081809.853,3115.620,N,07542.445,E,1,12,1.0,0.0,M,0.0,M,,*6B
$GPGSA,A,3,01,02,03,04,05,06,07,08,09,10,11,12,1.0,1.0,1.0*30
$GPRMC,081809.853,A,3115.620,N,07542.445,E,067.4,211.9,140420,000.0,W*72
$GPGGA,081810.853,3115.604,N,07542.435,E,1,12,1.0,0.0,M,0.0,M,,*62
$GPGSA,A,3,01,02,03,04,05,06,07,08,09,10,11,12,1.0,1.0,1.0*30
$GPRMC,081810.853,A,3115.604,N,07542.435,E,085.3,181.6,140420,000.0,W*75
$GPGGA,081811.853,3115.580,N,07542.434,E,1,12,1.0,0.0,M,0.0,M,,*6D
$GPGSA,A,3,01,02,03,04,05,06,07,08,09,10,11,12,1.0,1.0,1.0*30
$GPRMC,081811.853,A,3115.580,N,07542.434,E,063.4,180.0,140420,000.0,W*72
$GPGGA,081812.853,3115.562,N,07542.434,E,1,12,1.0,0.0,M,0.0,M,,*62
$GPGSA,A,3,01,02,03,04,05,06,07,08,09,10,11,12,1.0,1.0,1.0*30
$GPRMC,081812.853,A,3115.562,N,07542.434,E,052.2,180.0,140420,000.0,W*79
$GPGGA,081813.853,3115.548,N,07542.434,E,1,12,1.0,0.0,M,0.0,M,,*6B
$GPGSA,A,3,01,02,03,04,05,06,07,08,09,10,11,12,1.0,1.0,1.0*30
$GPRMC,081813.853,A,3115.548,N,07542.434,E,062.2,190.7,140420,000.0,W*75
$GPGGA,081814.853,3115.531,N,07542.431,E,1,12,1.0,0.0,M,0.0,M,,*67
$GPGSA,A,3,01,02,03,04,05,06,07,08,09,10,11,12,1.0,1.0,1.0*30
$GPRMC,081814.853,A,3115.531,N,07542.431,E,047.6,177.2,140420,000.0,W*76
$GPGGA,081815.853,3115.518,N,07542.431,E,1,12,1.0,0.0,M,0.0,M,,*6D
$GPGSA,A,3,01,02,03,04,05,06,07,08,09,10,11,12,1.0,1.0,1.0*30
$GPRMC,081815.853,A,3115.518,N,07542.431,E,062.6,260.6,140420,000.0,W*7A
$GPGGA,081816.853,3115.514,N,07542.412,E,1,12,1.0,0.0,M,0.0,M,,*63
$GPGSA,A,3,01,02,03,04,05,06,07,08,09,10,11,12,1.0,1.0,1.0*30
$GPRMC,081816.853,A,3115.514,N,07542.412,E,037.9,275.1,140420,000.0,W*78
$GPGGA,081817.853,3115.515,N,07542.399,E,1,12,1.0,0.0,M,0.0,M,,*67
$GPGSA,A,3,01,02,03,04,05,06,07,08,09,10,11,12,1.0,1.0,1.0*30
$GPRMC,081817.853,A,3115.515,N,07542.399,E,052.9,195.1,140420,000.0,W*72
$GPGGA,081818.853,3115.501,N,07542.395,E,1,12,1.0,0.0,M,0.0,M,,*61
$GPGSA,A,3,01,02,03,04,05,06,07,08,09,10,11,12,1.0,1.0,1.0*30
$GPRMC,081818.853,A,3115.501,N,07542.395,E,051.6,178.3,140420,000.0,W*79
$GPGGA,081819.853,3115.487,N,07542.396,E,1,12,1.0,0.0,M,0.0,M,,*6C
$GPGSA,A,3,01,02,03,04,05,06,07,08,09,10,11,12,1.0,1.0,1.0*30
$GPRMC,081819.853,A,3115.487,N,07542.396,E,111.2,183.6,140420,000.0,W*74
$GPGGA,081820.853,3115.456,N,07542.394,E,1,12,1.0,0.0,M,0.0,M,,*68
$GPGSA,A,3,01,02,03,04,05,06,07,08,09,10,11,12,1.0,1.0,1.0*30
$GPRMC,081820.853,A,3115.456,N,07542.394,E,071.5,176.3,140420,000.0,W*7F
$GPGGA,081821.853,3115.436,N,07542.395,E,1,12,1.0,0.0,M,0.0,M,,*6E
$GPGSA,A,3,01,02,03,04,05,06,07,08,09,10,11,12,1.0,1.0,1.0*30
$GPRMC,081821.853,A,3115.436,N,07542.395,E,069.9,197.8,140420,000.0,W*78
$GPGGA,081822.853,3115.417,N,07542.389,E,1,12,1.0,0.0,M,0.0,M,,*63
$GPGSA,A,3,01,02,03,04,05,06,07,08,09,10,11,12,1.0,1.0,1.0*30
$GPRMC,081822.853,A,3115.417,N,07542.389,E,099.1,202.9,140420,000.0,W*7C
$GPGGA,081823.853,3115.392,N,07542.378,E,1,12,1.0,0.0,M,0.0,M,,*66
$GPGSA,A,3,01,02,03,04,05,06,07,08,09,10,11,12,1.0,1.0,1.0*30
$GPRMC,081823.853,A,3115.392,N,07542.378,E,057.0,216.4,140420,000.0,W*72
$GPGGA,081824.853,3115.378,N,07542.368,E,1,12,1.0,0.0,M,0.0,M,,*64
$GPGSA,A,3,01,02,03,04,05,06,07,08,09,10,11,12,1.0,1.0,1.0*30
$GPRMC,081824.853,A,3115.378,N,07542.368,E,055.3,196.8,140420,000.0,W*76
$GPGGA,081825.853,3115.363,N,07542.364,E,1,12,1.0,0.0,M,0.0,M,,*63
$GPGSA,A,3,01,02,03,04,05,06,07,08,09,10,11,12,1.0,1.0,1.0*30
$GPRMC,081825.853,A,3115.363,N,07542.364,E,087.6,203.9,140420,000.0,W*75
$GPGGA,081826.853,3115.341,N,07542.354,E,1,12,1.0,0.0,M,0.0,M,,*63
$GPGSA,A,3,01,02,03,04,05,06,07,08,09,10,11,12,1.0,1.0,1.0*30
$GPRMC,081826.853,A,3115.341,N,07542.354,E,083.4,209.0,140420,000.0,W*70
$GPGGA,081827.853,3115.320,N,07542.342,E,1,12,1.0,0.0,M,0.0,M,,*62
$GPGSA,A,3,01,02,03,04,05,06,07,08,09,10,11,12,1.0,1.0,1.0*30
$GPRMC,081827.853,A,3115.320,N,07542.342,E,103.0,206.9,140420,000.0,W*7A
$GPGGA,081828.853,3115.293,N,07542.329,E,1,12,1.0,0.0,M,0.0,M,,*69
$GPGSA,A,3,01,02,03,04,05,06,07,08,09,10,11,12,1.0,1.0,1.0*30
$GPRMC,081828.853,A,3115.293,N,07542.329,E,084.3,213.5,140420,000.0,W*74
$GPGGA,081829.853,3115.273,N,07542.315,E,1,12,1.0,0.0,M,0.0,M,,*69
$GPGSA,A,3,01,02,03,04,05,06,07,08,09,10,11,12,1.0,1.0,1.0*30
$GPRMC,081829.853,A,3115.273,N,07542.315,E,091.7,204.8,140420,000.0,W*7F
$GPGGA,081830.853,3115.249,N,07542.304,E,1,12,1.0,0.0,M,0.0,M,,*68
$GPGSA,A,3,01,02,03,04,05,06,07,08,09,10,11,12,1.0,1.0,1.0*30
$GPRMC,081830.853,A,3115.249,N,07542.304,E,056.4,195.7,140420,000.0,W*72
$GPGGA,081831.853,3115.234,N,07542.300,E,1,12,1.0,0.0,M,0.0,M,,*67
$GPGSA,A,3,01,02,03,04,05,06,07,08,09,10,11,12,1.0,1.0,1.0*30
$GPRMC,081831.853,A,3115.234,N,07542.300,E,066.0,213.3,140420,000.0,W*73
$GPGGA,081832.853,3115.218,N,07542.290,E,1,12,1.0,0.0,M,0.0,M,,*62
$GPGSA,A,3,01,02,03,04,05,06,07,08,09,10,11,12,1.0,1.0,1.0*30
$GPRMC,081832.853,A,3115.218,N,07542.290,E,070.1,208.7,140420,000.0,W*7E
$GPGGA,081833.853,3115.201,N,07542.280,E,1,12,1.0,0.0,M,0.0,M,,*6A
$GPGSA,A,3,01,02,03,04,05,06,07,08,09,10,11,12,1.0,1.0,1.0*30
$GPRMC,081833.853,A,3115.201,N,07542.280,E,070.8,200.7,140420,000.0,W*77
$GPGGA,081834.853,3115.182,N,07542.273,E,1,12,1.0,0.0,M,0.0,M,,*69
$GPGSA,A,3,01,02,03,04,05,06,07,08,09,10,11,12,1.0,1.0,1.0*30
$GPRMC,081834.853,A,3115.182,N,07542.273,E,045.3,206.6,140420,000.0,W*7E
$GPGGA,081835.853,3115.170,N,07542.267,E,1,12,1.0,0.0,M,0.0,M,,*60
$GPGSA,A,3,01,02,03,04,05,06,07,08,09,10,11,12,1.0,1.0,1.0*30
$GPRMC,081835.853,A,3115.170,N,07542.267,E,060.4,206.6,140420,000.0,W*77
$GPGGA,081836.853,3115.155,N,07542.259,E,1,12,1.0,0.0,M,0.0,M,,*69
$GPGSA,A,3,01,02,03,04,05,06,07,08,09,10,11,12,1.0,1.0,1.0*30
$GPRMC,081836.853,A,3115.155,N,07542.259,E,047.9,213.7,140420,000.0,W*73
$GPGGA,081837.853,3115.143,N,07542.252,E,1,12,1.0,0.0,M,0.0,M,,*64
$GPGSA,A,3,01,02,03,04,05,06,07,08,09,10,11,12,1.0,1.0,1.0*30
$GPRMC,081837.853,A,3115.143,N,07542.252,E,043.2,136.8,140420,000.0,W*7A
$GPGGA,081838.853,3115.134,N,07542.260,E,1,12,1.0,0.0,M,0.0,M,,*6A
$GPGSA,A,3,01,02,03,04,05,06,07,08,09,10,11,12,1.0,1.0,1.0*30
$GPRMC,081838.853,A,3115.134,N,07542.260,E,047.7,174.4,140420,000.0,W*7F
$GPGGA,081839.853,3115.121,N,07542.262,E,1,12,1.0,0.0,M,0.0,M,,*6D
$GPGSA,A,3,01,02,03,04,05,06,07,08,09,10,11,12,1.0,1.0,1.0*30
$GPRMC,081839.853,A,3115.121,N,07542.262,E,083.6,173.7,140420,000.0,W*75
$GPGGA,081840.853,3115.098,N,07542.264,E,1,12,1.0,0.0,M,0.0,M,,*66
$GPGSA,A,3,01,02,03,04,05,06,07,08,09,10,11,12,1.0,1.0,1.0*30
$GPRMC,081840.853,A,3115.098,N,07542.264,E,039.7,180.0,140420,000.0,W*75
$GPGGA,081841.853,3115.087,N,07542.264,E,1,12,1.0,0.0,M,0.0,M,,*69
$GPGSA,A,3,01,02,03,04,05,06,07,08,09,10,11,12,1.0,1.0,1.0*30
$GPRMC,081841.853,A,3115.087,N,07542.264,E,047.6,180.0,140420,000.0,W*72
$GPGGA,081842.853,3115.074,N,07542.264,E,1,12,1.0,0.0,M,0.0,M,,*66
$GPGSA,A,3,01,02,03,04,05,06,07,08,09,10,11,12,1.0,1.0,1.0*30
$GPRMC,081842.853,A,3115.074,N,07542.264,E,029.5,202.6,140420,000.0,W*79
$GPGGA,081843.853,3115.066,N,07542.261,E,1,12,1.0,0.0,M,0.0,M,,*61
$GPGSA,A,3,01,02,03,04,05,06,07,08,09,10,11,12,1.0,1.0,1.0*30
$GPRMC,081843.853,A,3115.066,N,07542.261,E,025.8,298.6,140420,000.0,W*7C
$GPGGA,081844.853,3115.070,N,07542.254,E,1,12,1.0,0.0,M,0.0,M,,*67
$GPGSA,A,3,01,02,03,04,05,06,07,08,09,10,11,12,1.0,1.0,1.0*30
$GPRMC,081844.853,A,3115.070,N,07542.254,E,042.1,314.4,140420,000.0,W*75
$GPGGA,081845.853,3115.078,N,07542.245,E,1,12,1.0,0.0,M,0.0,M,,*6E
$GPGSA,A,3,01,02,03,04,05,06,07,08,09,10,11,12,1.0,1.0,1.0*30
$GPRMC,081845.853,A,3115.078,N,07542.245,E,057.2,299.7,140420,000.0,W*7C
$GPGGA,081846.853,3115.087,N,07542.230,E,1,12,1.0,0.0,M,0.0,M,,*6F
$GPGSA,A,3,01,02,03,04,05,06,07,08,09,10,11,12,1.0,1.0,1.0*30
$GPRMC,081846.853,A,3115.087,N,07542.230,E,041.8,297.6,140420,000.0,W*7F
$GPGGA,081847.853,3115.093,N,07542.218,E,1,12,1.0,0.0,M,0.0,M,,*61
$GPGSA,A,3,01,02,03,04,05,06,07,08,09,10,11,12,1.0,1.0,1.0*30
$GPRMC,081847.853,A,3115.093,N,07542.218,E,046.1,292.2,140420,000.0,W*7E
$GPGGA,081848.853,3115.099,N,07542.204,E,1,12,1.0,0.0,M,0.0,M,,*69
$GPGSA,A,3,01,02,03,04,05,06,07,08,09,10,11,12,1.0,1.0,1.0*30
$GPRMC,081848.853,A,3115.099,N,07542.204,E,046.3,312.3,140420,000.0,W*7C
$GPGGA,081849.853,3115.108,N,07542.194,E,1,12,1.0,0.0,M,0.0,M,,*6B
$GPGSA,A,3,01,02,03,04,05,06,07,08,09,10,11,12,1.0,1.0,1.0*30
$GPRMC,081849.853,A,3115.108,N,07542.194,E,036.9,311.3,140420,000.0,W*70
$GPGGA,081850.853,3115.116,N,07542.186,E,1,12,1.0,0.0,M,0.0,M,,*6F
$GPGSA,A,3,01,02,03,04,05,06,07,08,09,10,11,12,1.0,1.0,1.0*30
$GPRMC,081850.853,A,3115.116,N,07542.186,E,042.9,299.7,140420,000.0,W*72
$GPGGA,081851.853,3115.122,N,07542.174,E,1,12,1.0,0.0,M,0.0,M,,*64
$GPGSA,A,3,01,02,03,04,05,06,07,08,09,10,11,12,1.0,1.0,1.0*30
$GPRMC,081851.853,A,3115.122,N,07542.174,E,046.4,287.3,140420,000.0,W*7B
$GPGGA,081852.853,3115.127,N,07542.160,E,1,12,1.0,0.0,M,0.0,M,,*67
$GPGSA,A,3,01,02,03,04,05,06,07,08,09,10,11,12,1.0,1.0,1.0*30
$GPRMC,081852.853,A,3115.127,N,07542.160,E,046.5,315.8,140420,000.0,W*78
$GPGGA,081853.853,3115.136,N,07542.150,E,1,12,1.0,0.0,M,0.0,M,,*65
$GPGSA,A,3,01,02,03,04,05,06,07,08,09,10,11,12,1.0,1.0,1.0*30
$GPRMC,081853.853,A,3115.136,N,07542.150,E,029.9,328.5,140420,000.0,W*7C
$GPGGA,081854.853,3115.144,N,07542.146,E,1,12,1.0,0.0,M,0.0,M,,*60
$GPGSA,A,3,01,02,03,04,05,06,07,08,09,10,11,12,1.0,1.0,1.0*30
$GPRMC,081854.853,A,3115.144,N,07542.146,E,051.5,256.5,140420,000.0,W*72
$GPGGA,081855.853,3115.140,N,07542.130,E,1,12,1.0,0.0,M,0.0,M,,*64
$GPGSA,A,3,01,02,03,04,05,06,07,08,09,10,11,12,1.0,1.0,1.0*30
$GPRMC,081855.853,A,3115.140,N,07542.130,E,053.9,172.6,140420,000.0,W*7E
$GPGGA,081856.853,3115.125,N,07542.132,E,1,12,1.0,0.0,M,0.0,M,,*66
$GPGSA,A,3,01,02,03,04,05,06,07,08,09,10,11,12,1.0,1.0,1.0*30
$GPRMC,081856.853,A,3115.125,N,07542.132,E,073.8,172.8,140420,000.0,W*71
$GPGGA,081857.853,3115.105,N,07542.134,E,1,12,1.0,0.0,M,0.0,M,,*63
$GPGSA,A,3,01,02,03,04,05,06,07,08,09,10,11,12,1.0,1.0,1.0*30
$GPRMC,081857.853,A,3115.105,N,07542.134,E,063.7,173.8,140420,000.0,W*7B
$GPGGA,081858.853,3115.087,N,07542.136,E,1,12,1.0,0.0,M,0.0,M,,*65
$GPGSA,A,3,01,02,03,04,05,06,07,08,09,10,11,12,1.0,1.0,1.0*30
$GPRMC,081858.853,A,3115.087,N,07542.136,E,061.5,177.8,140420,000.0,W*79
$GPGGA,081859.853,3115.070,N,07542.137,E,1,12,1.0,0.0,M,0.0,M,,*6D
$GPGSA,A,3,01,02,03,04,05,06,07,08,09,10,11,12,1.0,1.0,1.0*30
$GPRMC,081859.853,A,3115.070,N,07542.137,E,061.6,175.7,140420,000.0,W*7F
$GPGGA,081900.853,3115.053,N,07542.138,E,1,12,1.0,0.0,M,0.0,M,,*6E
$GPGSA,A,3,01,02,03,04,05,06,07,08,09,10,11,12,1.0,1.0,1.0*30
$GPRMC,081900.853,A,3115.053,N,07542.138,E,050.4,192.3,140420,000.0,W*71
$GPGGA,081901.853,3115.039,N,07542.135,E,1,12,1.0,0.0,M,0.0,M,,*6E
$GPGSA,A,3,01,02,03,04,05,06,07,08,09,10,11,12,1.0,1.0,1.0*30
$GPRMC,081901.853,A,3115.039,N,07542.135,E,063.5,177.9,140420,000.0,W*71
$GPGGA,081902.853,3115.022,N,07542.136,E,1,12,1.0,0.0,M,0.0,M,,*64
$GPGSA,A,3,01,02,03,04,05,06,07,08,09,10,11,12,1.0,1.0,1.0*30
$GPRMC,081902.853,A,3115.022,N,07542.136,E,063.0,259.1,140420,000.0,W*79
$GPGGA,081903.853,3115.018,N,07542.116,E,1,12,1.0,0.0,M,0.0,M,,*6E
$GPGSA,A,3,01,02,03,04,05,06,07,08,09,10,11,12,1.0,1.0,1.0*30
$GPRMC,081903.853,A,3115.018,N,07542.116,E,059.5,271.6,140420,000.0,W*72
$GPGGA,081904.853,3115.018,N,07542.097,E,1,12,1.0,0.0,M,0.0,M,,*61
$GPGSA,A,3,01,02,03,04,05,06,07,08,09,10,11,12,1.0,1.0,1.0*30
$GPRMC,081904.853,A,3115.018,N,07542.097,E,040.1,262.7,140420,000.0,W*72
$GPGGA,081905.853,3115.017,N,07542.084,E,1,12,1.0,0.0,M,0.0,M,,*6D
$GPGSA,A,3,01,02,03,04,05,06,07,08,09,10,11,12,1.0,1.0,1.0*30
$GPRMC,081905.853,A,3115.017,N,07542.084,E,036.9,237.9,140420,000.0,W*79
$GPGGA,081906.853,3115.011,N,07542.074,E,1,12,1.0,0.0,M,0.0,M,,*67
$GPGSA,A,3,01,02,03,04,05,06,07,08,09,10,11,12,1.0,1.0,1.0*30
$GPRMC,081906.853,A,3115.011,N,07542.074,E,057.5,180.0,140420,000.0,W*7E
$GPGGA,081907.853,3114.995,N,07542.074,E,1,12,1.0,0.0,M,0.0,M,,*62
$GPGSA,A,3,01,02,03,04,05,06,07,08,09,10,11,12,1.0,1.0,1.0*30
$GPRMC,081907.853,A,3114.995,N,07542.074,E,053.5,178.3,140420,000.0,W*7B
$GPGGA,081908.853,3114.980,N,07542.074,E,1,12,1.0,0.0,M,0.0,M,,*69
$GPGSA,A,3,01,02,03,04,05,06,07,08,09,10,11,12,1.0,1.0,1.0*30
$GPRMC,081908.853,A,3114.980,N,07542.074,E,038.3,155.6,140420,000.0,W*71
$GPGGA,081909.853,3114.970,N,07542.079,E,1,12,1.0,0.0,M,0.0,M,,*6A
$GPGSA,A,3,01,02,03,04,05,06,07,08,09,10,11,12,1.0,1.0,1.0*30
$GPRMC,081909.853,A,3114.970,N,07542.079,E,031.3,201.3,140420,000.0,W*7C
$GPGGA,081910.853,3114.962,N,07542.076,E,1,12,1.0,0.0,M,0.0,M,,*6E
$GPGSA,A,3,01,02,03,04,05,06,07,08,09,10,11,12,1.0,1.0,1.0*30
$GPRMC,081910.853,A,3114.962,N,07542.076,E,037.7,183.5,140420,000.0,W*75
$GPGGA,081911.853,3114.951,N,07542.075,E,1,12,1.0,0.0,M,0.0,M,,*6C
$GPGSA,A,3,01,02,03,04,05,06,07,08,09,10,11,12,1.0,1.0,1.0*30
$GPRMC,081911.853,A,3114.951,N,07542.075,E,028.4,165.9,140420,000.0,W*7E
$GPGGA,081912.853,3114.943,N,07542.077,E,1,12,1.0,0.0,M,0.0,M,,*6E
$GPGSA,A,3,01,02,03,04,05,06,07,08,09,10,11,12,1.0,1.0,1.0*30
$GPRMC,081912.853,A,3114.943,N,07542.077,E,037.7,183.5,140420,000.0,W*75
$GPGGA,081913.853,3114.933,N,07542.076,E,1,12,1.0,0.0,M,0.0,M,,*69
$GPGSA,A,3,01,02,03,04,05,06,07,08,09,10,11,12,1.0,1.0,1.0*30
$GPRMC,081913.853,A,3114.933,N,07542.076,E,038.5,100.2,140420,000.0,W*73
$GPGGA,081914.853,3114.931,N,07542.089,E,1,12,1.0,0.0,M,0.0,M,,*6C
$GPGSA,A,3,01,02,03,04,05,06,07,08,09,10,11,12,1.0,1.0,1.0*30
$GPRMC,081914.853,A,3114.931,N,07542.089,E,030.0,083.5,140420,000.0,W*76
$GPGGA,081915.853,3114.932,N,07542.098,E,1,12,1.0,0.0,M,0.0,M,,*6E
$GPGSA,A,3,01,02,03,04,05,06,07,08,09,10,11,12,1.0,1.0,1.0*30
$GPRMC,081915.853,A,3114.932,N,07542.098,E,049.9,084.1,140420,000.0,W*70
$GPGGA,081916.853,3114.934,N,07542.114,E,1,12,1.0,0.0,M,0.0,M,,*6E
$GPGSA,A,3,01,02,03,04,05,06,07,08,09,10,11,12,1.0,1.0,1.0*30
$GPRMC,081916.853,A,3114.934,N,07542.114,E,063.5,088.5,140420,000.0,W*7C
$GPGGA,081917.853,3114.934,N,07542.135,E,1,12,1.0,0.0,M,0.0,M,,*6C
$GPGSA,A,3,01,02,03,04,05,06,07,08,09,10,11,12,1.0,1.0,1.0*30
$GPRMC,081917.853,A,3114.934,N,07542.135,E,030.2,153.4,140420,000.0,W*79
$GPGGA,081918.853,3114.926,N,07542.139,E,1,12,1.0,0.0,M,0.0,M,,*6C
$GPGSA,A,3,01,02,03,04,05,06,07,08,09,10,11,12,1.0,1.0,1.0*30
$GPRMC,081918.853,A,3114.926,N,07542.139,E,054.8,165.5,140420,000.0,W*75
$GPGGA,081919.853,3114.912,N,07542.143,E,1,12,1.0,0.0,M,0.0,M,,*67
$GPGSA,A,3,01,02,03,04,05,06,07,08,09,10,11,12,1.0,1.0,1.0*30
$GPRMC,081919.853,A,3114.912,N,07542.143,E,032.0,188.3,140420,000.0,W*73
$GPGGA,081920.853,3114.903,N,07542.141,E,1,12,1.0,0.0,M,0.0,M,,*6F
$GPGSA,A,3,01,02,03,04,05,06,07,08,09,10,11,12,1.0,1.0,1.0*30
$GPRMC,081920.853,A,3114.903,N,07542.141,E,032.0,171.7,140420,000.0,W*79
$GPGGA,081921.853,3114.894,N,07542.143,E,1,12,1.0,0.0,M,0.0,M,,*63
$GPGSA,A,3,01,02,03,04,05,06,07,08,09,10,11,12,1.0,1.0,1.0*30
$GPRMC,081921.853,A,3114.894,N,07542.143,E,047.6,180.0,140420,000.0,W*78
$GPGGA,081922.853,3114.881,N,07542.143,E,1,12,1.0,0.0,M,0.0,M,,*64
$GPGSA,A,3,01,02,03,04,05,06,07,08,09,10,11,12,1.0,1.0,1.0*30
$GPRMC,081922.853,A,3114.881,N,07542.143,E,049.7,174.7,140420,000.0,W*7C
$GPGGA,081923.853,3114.867,N,07542.144,E,1,12,1.0,0.0,M,0.0,M,,*6A
$GPGSA,A,3,01,02,03,04,05,06,07,08,09,10,11,12,1.0,1.0,1.0*30
$GPRMC,081923.853,A,3114.867,N,07542.144,E,045.1,184.9,140420,000.0,W*79
$GPGGA,081924.853,3114.854,N,07542.143,E,1,12,1.0,0.0,M,0.0,M,,*6A
$GPGSA,A,3,01,02,03,04,05,06,07,08,09,10,11,12,1.0,1.0,1.0*30
$GPRMC,081924.853,A,3114.854,N,07542.143,E,049.7,174.7,140420,000.0,W*72
$GPGGA,081925.853,3114.841,N,07542.144,E,1,12,1.0,0.0,M,0.0,M,,*68
$GPGSA,A,3,01,02,03,04,05,06,07,08,09,10,11,12,1.0,1.0,1.0*30
$GPRMC,081925.853,A,3114.841,N,07542.144,E,053.5,090.0,140420,000.0,W*75
$GPGGA,081926.853,3114.841,N,07542.162,E,1,12,1.0,0.0,M,0.0,M,,*6F
$GPGSA,A,3,01,02,03,04,05,06,07,08,09,10,11,12,1.0,1.0,1.0*30
$GPRMC,081926.853,A,3114.841,N,07542.162,E,041.8,085.3,140420,000.0,W*7B
$GPGGA,081927.853,3114.842,N,07542.175,E,1,12,1.0,0.0,M,0.0,M,,*6B
$GPGSA,A,3,01,02,03,04,05,06,07,08,09,10,11,12,1.0,1.0,1.0*30
$GPRMC,081927.853,A,3114.842,N,07542.175,E,025.8,090.0,140420,000.0,W*7A
$GPGGA,081928.853,3114.842,N,07542.183,E,1,12,1.0,0.0,M,0.0,M,,*6D
$GPGSA,A,3,01,02,03,04,05,06,07,08,09,10,11,12,1.0,1.0,1.0*30
$GPRMC,081928.853,A,3114.842,N,07542.183,E,036.3,142.7,140420,000.0,W*7C
$GPGGA,081929.853,3114.833,N,07542.190,E,1,12,1.0,0.0,M,0.0,M,,*68
$GPGSA,A,3,01,02,03,04,05,06,07,08,09,10,11,12,1.0,1.0,1.0*30
$GPRMC,081929.853,A,3114.833,N,07542.190,E,045.6,177.1,140420,000.0,W*78
$GPGGA,081930.853,3114.821,N,07542.191,E,1,12,1.0,0.0,M,0.0,M,,*62
$GPGSA,A,3,01,02,03,04,05,06,07,08,09,10,11,12,1.0,1.0,1.0*30
$GPRMC,081930.853,A,3114.821,N,07542.191,E,069.4,180.0,140420,000.0,W*77
$GPGGA,081931.853,3114.801,N,07542.191,E,1,12,1.0,0.0,M,0.0,M,,*61
$GPGSA,A,3,01,02,03,04,05,06,07,08,09,10,11,12,1.0,1.0,1.0*30
$GPRMC,081931.853,A,3114.801,N,07542.191,E,067.7,174.1,140420,000.0,W*73
$GPGGA,081932.853,3114.783,N,07542.192,E,1,12,1.0,0.0,M,0.0,M,,*64
$GPGSA,A,3,01,02,03,04,05,06,07,08,09,10,11,12,1.0,1.0,1.0*30
$GPRMC,081932.853,A,3114.783,N,07542.192,E,059.5,182.2,140420,000.0,W*73
$GPGGA,081933.853,3114.766,N,07542.192,E,1,12,1.0,0.0,M,0.0,M,,*6E
$GPGSA,A,3,01,02,03,04,05,06,07,08,09,10,11,12,1.0,1.0,1.0*30
$GPRMC,081933.853,A,3114.766,N,07542.192,E,041.7,184.2,140420,000.0,W*74
$GPGGA,081934.853,3114.755,N,07542.191,E,1,12,1.0,0.0,M,0.0,M,,*6A
$GPGSA,A,3,01,02,03,04,05,06,07,08,09,10,11,12,1.0,1.0,1.0*30
$GPRMC,081934.853,A,3114.755,N,07542.191,E,081.5,355.1,140420,000.0,W*73
$GPGGA,081935.853,3114.777,N,07542.189,E,1,12,1.0,0.0,M,0.0,M,,*62
$GPGSA,A,3,01,02,03,04,05,06,07,08,09,10,11,12,1.0,1.0,1.0*30
$GPRMC,081935.853,A,3114.777,N,07542.189,E,047.6,268.0,140420,000.0,W*7C
$GPGGA,081936.853,3114.777,N,07542.174,E,1,12,1.0,0.0,M,0.0,M,,*63
$GPGSA,A,3,01,02,03,04,05,06,07,08,09,10,11,12,1.0,1.0,1.0*30
$GPRMC,081936.853,A,3114.777,N,07542.174,E,055.7,273.5,140420,000.0,W*70
$GPGGA,081937.853,3114.778,N,07542.156,E,1,12,1.0,0.0,M,0.0,M,,*6D
$GPGSA,A,3,01,02,03,04,05,06,07,08,09,10,11,12,1.0,1.0,1.0*30
$GPRMC,081937.853,A,3114.778,N,07542.156,E,042.1,263.0,140420,000.0,W*7A
$GPGGA,081938.853,3114.776,N,07542.142,E,1,12,1.0,0.0,M,0.0,M,,*69
$GPGSA,A,3,01,02,03,04,05,06,07,08,09,10,11,12,1.0,1.0,1.0*30
$GPRMC,081938.853,A,3114.776,N,07542.142,E,055.5,271.8,140420,000.0,W*77
$GPGGA,081939.853,3114.777,N,07542.124,E,1,12,1.0,0.0,M,0.0,M,,*69
$GPGSA,A,3,01,02,03,04,05,06,07,08,09,10,11,12,1.0,1.0,1.0*30
$GPRMC,081939.853,A,3114.777,N,07542.124,E,038.1,277.7,140420,000.0,W*71
$GPGGA,081940.853,3114.778,N,07542.112,E,1,12,1.0,0.0,M,0.0,M,,*6D
$GPGSA,A,3,01,02,03,04,05,06,07,08,09,10,11,12,1.0,1.0,1.0*30
$GPRMC,081940.853,A,3114.778,N,07542.112,E,035.7,267.3,140420,000.0,W*7B
$GPGGA,081941.853,3114.778,N,07542.100,E,1,12,1.0,0.0,M,0.0,M,,*6F
$GPGSA,A,3,01,02,03,04,05,06,07,08,09,10,11,12,1.0,1.0,1.0*30
$GPRMC,081941.853,A,3114.778,N,07542.100,E,035.9,275.4,140420,000.0,W*73
$GPGGA,081942.853,3114.779,N,07542.089,E,1,12,1.0,0.0,M,0.0,M,,*6D
$GPGSA,A,3,01,02,03,04,05,06,07,08,09,10,11,12,1.0,1.0,1.0*30
$GPRMC,081942.853,A,3114.779,N,07542.089,E,040.9,316.5,140420,000.0,W*76
$GPGGA,081943.853,3114.788,N,07542.080,E,1,12,1.0,0.0,M,0.0,M,,*6B
$GPGSA,A,3,01,02,03,04,05,06,07,08,09,10,11,12,1.0,1.0,1.0*30
$GPRMC,081943.853,A,3114.788,N,07542.080,E,047.0,004.7,140420,000.0,W*7C
$GPGGA,081944.853,3114.801,N,07542.081,E,1,12,1.0,0.0,M,0.0,M,,*63
$GPGSA,A,3,01,02,03,04,05,06,07,08,09,10,11,12,1.0,1.0,1.0*30
$GPRMC,081944.853,A,3114.801,N,07542.081,E,041.0,356.8,140420,000.0,W*79
$GPGGA,081945.853,3114.812,N,07542.081,E,1,12,1.0,0.0,M,0.0,M,,*60
$GPGSA,A,3,01,02,03,04,05,06,07,08,09,10,11,12,1.0,1.0,1.0*30
$GPRMC,081945.853,A,3114.812,N,07542.081,E,073.4,358.2,140420,000.0,W*7B
$GPGGA,081946.853,3114.832,N,07542.080,E,1,12,1.0,0.0,M,0.0,M,,*60
$GPGSA,A,3,01,02,03,04,05,06,07,08,09,10,11,12,1.0,1.0,1.0*30
$GPRMC,081946.853,A,3114.832,N,07542.080,E,055.7,004.8,140420,000.0,W*7C
$GPGGA,081947.853,3114.848,N,07542.081,E,1,12,1.0,0.0,M,0.0,M,,*6D
$GPGSA,A,3,01,02,03,04,05,06,07,08,09,10,11,12,1.0,1.0,1.0*30
$GPRMC,081947.853,A,3114.848,N,07542.081,E,055.5,357.6,140420,000.0,W*78
$GPGGA,081948.853,3114.863,N,07542.081,E,1,12,1.0,0.0,M,0.0,M,,*6B
$GPGSA,A,3,01,02,03,04,05,06,07,08,09,10,11,12,1.0,1.0,1.0*30
$GPRMC,081948.853,A,3114.863,N,07542.081,E,051.7,354.9,140420,000.0,W*74
$GPGGA,081949.853,3114.878,N,07542.079,E,1,12,1.0,0.0,M,0.0,M,,*67
$GPGSA,A,3,01,02,03,04,05,06,07,08,09,10,11,12,1.0,1.0,1.0*30
$GPRMC,081949.853,A,3114.878,N,07542.079,E,054.1,009.8,140420,000.0,W*71
$GPGGA,081950.853,3114.892,N,07542.082,E,1,12,1.0,0.0,M,0.0,M,,*6F
$GPGSA,A,3,01,02,03,04,05,06,07,08,09,10,11,12,1.0,1.0,1.0*30
$GPRMC,081950.853,A,3114.892,N,07542.082,E,035.8,333.9,140420,000.0,W*7C
$GPGGA,081951.853,3114.902,N,07542.077,E,1,12,1.0,0.0,M,0.0,M,,*6C
$GPGSA,A,3,01,02,03,04,05,06,07,08,09,10,11,12,1.0,1.0,1.0*30
$GPRMC,081951.853,A,3114.902,N,07542.077,E,041.7,356.8,140420,000.0,W*71
$GPGGA,081952.853,3114.913,N,07542.077,E,1,12,1.0,0.0,M,0.0,M,,*6F
$GPGSA,A,3,01,02,03,04,05,06,07,08,09,10,11,12,1.0,1.0,1.0*30
$GPRMC,081952.853,A,3114.913,N,07542.077,E,036.6,014.5,140420,000.0,W*7B
$GPGGA,081953.853,3114.923,N,07542.079,E,1,12,1.0,0.0,M,0.0,M,,*63
$GPGSA,A,3,01,02,03,04,05,06,07,08,09,10,11,12,1.0,1.0,1.0*30
$GPRMC,081953.853,A,3114.923,N,07542.079,E,025.2,333.4,140420,000.0,W*76
$GPGGA,081954.853,3114.929,N,07542.076,E,1,12,1.0,0.0,M,0.0,M,,*61
$GPGSA,A,3,01,02,03,04,05,06,07,08,09,10,11,12,1.0,1.0,1.0*30
$GPRMC,081954.853,A,3114.929,N,07542.076,E,028.0,310.6,140420,000.0,W*78
$GPGGA,081955.853,3114.935,N,07542.070,E,1,12,1.0,0.0,M,0.0,M,,*6B
$GPGSA,A,3,01,02,03,04,05,06,07,08,09,10,11,12,1.0,1.0,1.0*30
$GPRMC,081955.853,A,3114.935,N,07542.070,E,029.8,273.3,140420,000.0,W*7A
$GPGGA,081956.853,3114.936,N,07542.060,E,1,12,1.0,0.0,M,0.0,M,,*6A
$GPGSA,A,3,01,02,03,04,05,06,07,08,09,10,11,12,1.0,1.0,1.0*30
$GPRMC,081956.853,A,3114.936,N,07542.060,E,051.9,275.6,140420,000.0,W*76
$GPGGA,081957.853,3114.937,N,07542.043,E,1,12,1.0,0.0,M,0.0,M,,*6B
$GPGSA,A,3,01,02,03,04,05,06,07,08,09,10,11,12,1.0,1.0,1.0*30
$GPRMC,081957.853,A,3114.937,N,07542.043,E,048.0,276.1,140420,000.0,W*72
$GPGGA,081958.853,3114.939,N,07542.028,E,1,12,1.0,0.0,M,0.0,M,,*67
$GPGSA,A,3,01,02,03,04,05,06,07,08,09,10,11,12,1.0,1.0,1.0*30
$GPRMC,081958.853,A,3114.939,N,07542.028,E,067.9,275.8,140420,000.0,W*70
$GPGGA,081959.853,3114.941,N,07542.006,E,1,12,1.0,0.0,M,0.0,M,,*65
$GPGSA,A,3,01,02,03,04,05,06,07,08,09,10,11,12,1.0,1.0,1.0*30
$GPRMC,081959.853,A,3114.941,N,07542.006,E,068.4,261.4,140420,000.0,W*79
$GPGGA,082000.853,3114.938,N,07541.984,E,1,12,1.0,0.0,M,0.0,M,,*6D
$GPGSA,A,3,01,02,03,04,05,06,07,08,09,10,11,12,1.0,1.0,1.0*30
$GPRMC,082000.853,A,3114.938,N,07541.984,E,065.5,271.5,140420,000.0,W*7D
$GPGGA,082001.853,3114.938,N,07541.963,E,1,12,1.0,0.0,M,0.0,M,,*65
$GPGSA,A,3,01,02,03,04,05,06,07,08,09,10,11,12,1.0,1.0,1.0*30
$GPRMC,082001.853,A,3114.938,N,07541.963,E,063.0,259.1,140420,000.0,W*78
$GPGGA,082002.853,3114.934,N,07541.943,E,1,12,1.0,0.0,M,0.0,M,,*68
$GPGSA,A,3,01,02,03,04,05,06,07,08,09,10,11,12,1.0,1.0,1.0*30
$GPRMC,082002.853,A,3114.934,N,07541.943,E,415.2,088.7,140420,000.0,W*7A
$GPGGA,082003.853,3114.938,N,07542.078,E,1,12,1.0,0.0,M,0.0,M,,*67
$GPGSA,A,3,01,02,03,04,05,06,07,08,09,10,11,12,1.0,1.0,1.0*30
$GPRMC,082003.853,A,3114.938,N,07542.078,E,263.7,358.7,140420,000.0,W*79
$GPGGA,082004.853,3115.011,N,07542.076,E,1,12,1.0,0.0,M,0.0,M,,*6D
$GPGSA,A,3,01,02,03,04,05,06,07,08,09,10,11,12,1.0,1.0,1.0*30
$GPRMC,082004.853,A,3115.011,N,07542.076,E,042.2,287.4,140420,000.0,W*77
$GPGGA,082005.853,3115.015,N,07542.063,E,1,12,1.0,0.0,M,0.0,M,,*6C
$GPGSA,A,3,01,02,03,04,05,06,07,08,09,10,11,12,1.0,1.0,1.0*30
$GPRMC,082005.853,A,3115.015,N,07542.063,E,039.7,272.5,140420,000.0,W*74
$GPGGA,082006.853,3115.015,N,07542.050,E,1,12,1.0,0.0,M,0.0,M,,*6F
$GPGSA,A,3,01,02,03,04,05,06,07,08,09,10,11,12,1.0,1.0,1.0*30
$GPRMC,082006.853,A,3115.015,N,07542.050,E,027.8,270.0,140420,000.0,W*70
$GPGGA,082007.853,3115.015,N,07542.041,E,1,12,1.0,0.0,M,0.0,M,,*6E
$GPGSA,A,3,01,02,03,04,05,06,07,08,09,10,11,12,1.0,1.0,1.0*30
$GPRMC,082007.853,A,3115.015,N,07542.041,E,039.0,342.9,140420,000.0,W*7F
$GPGGA,082008.853,3115.026,N,07542.038,E,1,12,1.0,0.0,M,0.0,M,,*6F
$GPGSA,A,3,01,02,03,04,05,06,07,08,09,10,11,12,1.0,1.0,1.0*30
$GPRMC,082008.853,A,3115.026,N,07542.038,E,038.3,024.4,140420,000.0,W*72
$GPGGA,082009.853,3115.036,N,07542.042,E,1,12,1.0,0.0,M,0.0,M,,*62
$GPGSA,A,3,01,02,03,04,05,06,07,08,09,10,11,12,1.0,1.0,1.0*30
$GPRMC,082009.853,A,3115.036,N,07542.042,E,037.9,353.0,140420,000.0,W*7D
$GPGGA,082010.853,3115.046,N,07542.041,E,1,12,1.0,0.0,M,0.0,M,,*6E
$GPGSA,A,3,01,02,03,04,05,06,07,08,09,10,11,12,1.0,1.0,1.0*30
$GPRMC,082010.853,A,3115.046,N,07542.041,E,039.7,000.0,140420,000.0,W*74
$GPGGA,082011.853,3115.057,N,07542.041,E,1,12,1.0,0.0,M,0.0,M,,*6F
$GPGSA,A,3,01,02,03,04,05,06,07,08,09,10,11,12,1.0,1.0,1.0*30
$GPRMC,082011.853,A,3115.057,N,07542.041,E,034.4,000.0,140420,000.0,W*7B
$GPGGA,082012.853,3115.067,N,07542.041,E,1,12,1.0,0.0,M,0.0,M,,*6F
$GPGSA,A,3,01,02,03,04,05,06,07,08,09,10,11,12,1.0,1.0,1.0*30
$GPRMC,082012.853,A,3115.067,N,07542.041,E,035.7,000.0,140420,000.0,W*79
$GPGGA,082013.853,3115.077,N,07542.041,E,1,12,1.0,0.0,M,0.0,M,,*6F
$GPGSA,A,3,01,02,03,04,05,06,07,08,09,10,11,12,1.0,1.0,1.0*30
$GPRMC,082013.853,A,3115.077,N,07542.041,E,039.7,356.7,140420,000.0,W*72
$GPGGA,082014.853,3115.088,N,07542.041,E,1,12,1.0,0.0,M,0.0,M,,*68
$GPGSA,A,3,01,02,03,04,05,06,07,08,09,10,11,12,1.0,1.0,1.0*30
$GPRMC,082014.853,A,3115.088,N,07542.041,E,049.7,005.3,140420,000.0,W*73
$GPGGA,082015.853,3115.101,N,07542.042,E,1,12,1.0,0.0,M,0.0,M,,*6A
$GPGSA,A,3,01,02,03,04,05,06,07,08,09,10,11,12,1.0,1.0,1.0*30
$GPRMC,082015.853,A,3115.101,N,07542.042,E,048.0,351.7,140420,000.0,W*71
$GPGGA,082016.853,3115.115,N,07542.040,E,1,12,1.0,0.0,M,0.0,M,,*6E
$GPGSA,A,3,01,02,03,04,05,06,07,08,09,10,11,12,1.0,1.0,1.0*30
$GPRMC,082016.853,A,3115.115,N,07542.040,E,138.9,177.1,140420,000.0,W*7A
$GPGGA,082017.853,3115.076,N,07542.042,E,1,12,1.0,0.0,M,0.0,M,,*69
$GPGSA,A,3,01,02,03,04,05,06,07,08,09,10,11,12,1.0,1.0,1.0*30
$GPRMC,082017.853,A,3115.076,N,07542.042,E,045.8,105.2,140420,000.0,W*71
$GPGGA,082018.853,3115.072,N,07542.056,E,1,12,1.0,0.0,M,0.0,M,,*67
$GPGSA,A,3,01,02,03,04,05,06,07,08,09,10,11,12,1.0,1.0,1.0*30
$GPRMC,082018.853,A,3115.072,N,07542.056,E,055.8,084.8,140420,000.0,W*7C
$GPGGA,082019.853,3115.074,N,07542.074,E,1,12,1.0,0.0,M,0.0,M,,*60
$GPGSA,A,3,01,02,03,04,05,06,07,08,09,10,11,12,1.0,1.0,1.0*30
$GPRMC,082019.853,A,3115.074,N,07542.074,E,087.3,088.9,140420,000.0,W*72
$GPGGA,082020.853,3115.074,N,07542.102,E,1,12,1.0,0.0,M,0.0,M,,*6A
$GPGSA,A,3,01,02,03,04,05,06,07,08,09,10,11,12,1.0,1.0,1.0*30
$GPRMC,082020.853,A,3115.074,N,07542.102,E,067.5,092.9,140420,000.0,W*7B
$GPGGA,082021.853,3115.073,N,07542.124,E,1,12,1.0,0.0,M,0.0,M,,*68
$GPGSA,A,3,01,02,03,04,05,06,07,08,09,10,11,12,1.0,1.0,1.0*30
$GPRMC,082021.853,A,3115.073,N,07542.124,E,035.9,084.6,140420,000.0,W*7A
$GPGGA,082022.853,3115.074,N,07542.136,E,1,12,1.0,0.0,M,0.0,M,,*6F
$GPGSA,A,3,01,02,03,04,05,06,07,08,09,10,11,12,1.0,1.0,1.0*30
$GPRMC,082022.853,A,3115.074,N,07542.136,E,267.6,359.8,140420,000.0,W*7A
$GPGGA,082023.853,3115.149,N,07542.136,E,1,12,1.0,0.0,M,0.0,M,,*61
$GPGSA,A,3,01,02,03,04,05,06,07,08,09,10,11,12,1.0,1.0,1.0*30
$GPRMC,082023.853,A,3115.149,N,07542.136,E,047.1,343.1,140420,000.0,W*71
$GPGGA,082024.853,3115.161,N,07542.132,E,1,12,1.0,0.0,M,0.0,M,,*68
$GPGSA,A,3,01,02,03,04,05,06,07,08,09,10,11,12,1.0,1.0,1.0*30
$GPRMC,082024.853,A,3115.161,N,07542.132,E,033.9,336.3,140420,000.0,W*73
$GPGGA,082025.853,3115.170,N,07542.128,E,1,12,1.0,0.0,M,0.0,M,,*62
$GPGSA,A,3,01,02,03,04,05,06,07,08,09,10,11,12,1.0,1.0,1.0*30
$GPRMC,082025.853,A,3115.170,N,07542.128,E,038.1,328.3,140420,000.0,W*75
$GPGGA,082026.853,3115.180,N,07542.122,E,1,12,1.0,0.0,M,0.0,M,,*64
$GPGSA,A,3,01,02,03,04,05,06,07,08,09,10,11,12,1.0,1.0,1.0*30
$GPRMC,082026.853,A,3115.180,N,07542.122,E,042.4,303.2,140420,000.0,W*73
$GPGGA,082027.853,3115.187,N,07542.111,E,1,12,1.0,0.0,M,0.0,M,,*62
$GPGSA,A,3,01,02,03,04,05,06,07,08,09,10,11,12,1.0,1.0,1.0*30
$GPRMC,082027.853,A,3115.187,N,07542.111,E,066.0,298.8,140420,000.0,W*7E
$GPGGA,082028.853,3115.197,N,07542.093,E,1,12,1.0,0.0,M,0.0,M,,*67
$GPGSA,A,3,01,02,03,04,05,06,07,08,09,10,11,12,1.0,1.0,1.0*30
$GPRMC,082028.853,A,3115.197,N,07542.093,E,035.2,353.7,140420,000.0,W*76
$GPGGA,082029.853,3115.206,N,07542.092,E,1,12,1.0,0.0,M,0.0,M,,*6C
$GPGSA,A,3,01,02,03,04,05,06,07,08,09,10,11,12,1.0,1.0,1.0*30
$GPRMC,082029.853,A,3115.206,N,07542.092,E,071.5,003.7,140420,000.0,W*7C
$GPGGA,082030.853,3115.226,N,07542.093,E,1,12,1.0,0.0,M,0.0,M,,*67
$GPGSA,A,3,01,02,03,04,05,06,07,08,09,10,11,12,1.0,1.0,1.0*30
$GPRMC,082030.853,A,3115.226,N,07542.093,E,048.6,346.3,140420,000.0,W*78
$GPGGA,082031.853,3115.239,N,07542.090,E,1,12,1.0,0.0,M,0.0,M,,*6B
$GPGSA,A,3,01,02,03,04,05,06,07,08,09,10,11,12,1.0,1.0,1.0*30
$GPRMC,082031.853,A,3115.239,N,07542.090,E,043.6,000.0,140420,000.0,W*7D
$GPGGA,082032.853,3115.251,N,07542.090,E,1,12,1.0,0.0,M,0.0,M,,*66
$GPGSA,A,3,01,02,03,04,05,06,07,08,09,10,11,12,1.0,1.0,1.0*30
$GPRMC,082032.853,A,3115.251,N,07542.090,E,039.7,003.3,140420,000.0,W*7C
$GPGGA,082033.853,3115.262,N,07542.091,E,1,12,1.0,0.0,M,0.0,M,,*66
$GPGSA,A,3,01,02,03,04,05,06,07,08,09,10,11,12,1.0,1.0,1.0*30
$GPRMC,082033.853,A,3115.262,N,07542.091,E,029.8,267.8,140420,000.0,W*79
$GPGGA,082034.853,3115.262,N,07542.081,E,1,12,1.0,0.0,M,0.0,M,,*60
$GPGSA,A,3,01,02,03,04,05,06,07,08,09,10,11,12,1.0,1.0,1.0*30
$GPRMC,082034.853,A,3115.262,N,07542.081,E,050.5,279.7,140420,000.0,W*7C
$GPGGA,082035.853,3115.265,N,07542.065,E,1,12,1.0,0.0,M,0.0,M,,*6C
$GPGSA,A,3,01,02,03,04,05,06,07,08,09,10,11,12,1.0,1.0,1.0*30
$GPRMC,082035.853,A,3115.265,N,07542.065,E,039.7,272.5,140420,000.0,W*74
$GPGGA,082036.853,3115.265,N,07542.052,E,1,12,1.0,0.0,M,0.0,M,,*6B
$GPGSA,A,3,01,02,03,04,05,06,07,08,09,10,11,12,1.0,1.0,1.0*30
$GPRMC,082036.853,A,3115.265,N,07542.052,E,031.8,273.1,140420,000.0,W*71
$GPGGA,082037.853,3115.266,N,07542.042,E,1,12,1.0,0.0,M,0.0,M,,*68
$GPGSA,A,3,01,02,03,04,05,06,07,08,09,10,11,12,1.0,1.0,1.0*30
$GPRMC,082037.853,A,3115.266,N,07542.042,E,051.6,357.4,140420,000.0,W*78
$GPGGA,082038.853,3115.280,N,07542.041,E,1,12,1.0,0.0,M,0.0,M,,*6C
$GPGSA,A,3,01,02,03,04,05,06,07,08,09,10,11,12,1.0,1.0,1.0*30
$GPRMC,082038.853,A,3115.280,N,07542.041,E,041.8,353.7,140420,000.0,W*74
$GPGGA,082039.853,3115.292,N,07542.040,E,1,12,1.0,0.0,M,0.0,M,,*6F
$GPGSA,A,3,01,02,03,04,05,06,07,08,09,10,11,12,1.0,1.0,1.0*30
$GPRMC,082039.853,A,3115.292,N,07542.040,E,035.0,058.3,140420,000.0,W*70
$GPGGA,082040.853,3115.297,N,07542.049,E,1,12,1.0,0.0,M,0.0,M,,*6D
$GPGSA,A,3,01,02,03,04,05,06,07,08,09,10,11,12,1.0,1.0,1.0*30
$GPRMC,082040.853,A,3115.297,N,07542.049,E,031.8,086.9,140420,000.0,W*77
$GPGGA,082041.853,3115.298,N,07542.059,E,1,12,1.0,0.0,M,0.0,M,,*62
$GPGSA,A,3,01,02,03,04,05,06,07,08,09,10,11,12,1.0,1.0,1.0*30
$GPRMC,082041.853,A,3115.298,N,07542.059,E,077.9,263.7,140420,000.0,W*7C
$GPGGA,082042.853,3115.295,N,07542.034,E,1,12,1.0,0.0,M,0.0,M,,*67
$GPGSA,A,3,01,02,03,04,05,06,07,08,09,10,11,12,1.0,1.0,1.0*30
$GPRMC,082042.853,A,3115.295,N,07542.034,E,045.8,274.3,140420,000.0,W*7B
$GPGGA,082043.853,3115.296,N,07542.019,E,1,12,1.0,0.0,M,0.0,M,,*6A
$GPGSA,A,3,01,02,03,04,05,06,07,08,09,10,11,12,1.0,1.0,1.0*30
$GPRMC,082043.853,A,3115.296,N,07542.019,E,077.5,093.8,140420,000.0,W*7A
$GPGGA,082044.853,3115.295,N,07542.045,E,1,12,1.0,0.0,M,0.0,M,,*67
$GPGSA,A,3,01,02,03,04,05,06,07,08,09,10,11,12,1.0,1.0,1.0*30
$GPRMC,082044.853,A,3115.295,N,07542.045,E,036.6,079.2,140420,000.0,W*7F
$GPGGA,082045.853,3115.297,N,07542.056,E,1,12,1.0,0.0,M,0.0,M,,*66
$GPGSA,A,3,01,02,03,04,05,06,07,08,09,10,11,12,1.0,1.0,1.0*30
$GPRMC,082045.853,A,3115.297,N,07542.056,E,033.6,049.4,140420,000.0,W*7E
$GPGGA,082046.853,3115.304,N,07542.064,E,1,12,1.0,0.0,M,0.0,M,,*6F
$GPGSA,A,3,01,02,03,04,05,06,07,08,09,10,11,12,1.0,1.0,1.0*30
$GPRMC,082046.853,A,3115.304,N,07542.064,E,032.0,008.3,140420,000.0,W*72
$GPGGA,082047.853,3115.312,N,07542.065,E,1,12,1.0,0.0,M,0.0,M,,*68
$GPGSA,A,3,01,02,03,04,05,06,07,08,09,10,11,12,1.0,1.0,1.0*30
$GPRMC,082047.853,A,3115.312,N,07542.065,E,021.9,006.1,140420,000.0,W*72
$GPGGA,082048.853,3115.318,N,07542.066,E,1,12,1.0,0.0,M,0.0,M,,*6E
$GPGSA,A,3,01,02,03,04,05,06,07,08,09,10,11,12,1.0,1.0,1.0*30
$GPRMC,082048.853,A,3115.318,N,07542.066,E,036.6,045.0,140420,000.0,W*7B
$GPGGA,082049.853,3115.326,N,07542.074,E,1,12,1.0,0.0,M,0.0,M,,*61
$GPGSA,A,3,01,02,03,04,05,06,07,08,09,10,11,12,1.0,1.0,1.0*30
$GPRMC,082049.853,A,3115.326,N,07542.074,E,042.1,083.0,140420,000.0,W*7A
$GPGGA,082050.853,3115.328,N,07542.087,E,1,12,1.0,0.0,M,0.0,M,,*6B
$GPGSA,A,3,01,02,03,04,05,06,07,08,09,10,11,12,1.0,1.0,1.0*30
$GPRMC,082050.853,A,3115.328,N,07542.087,E,047.7,085.9,140420,000.0,W*7C
$GPGGA,082051.853,3115.329,N,07542.103,E,1,12,1.0,0.0,M,0.0,M,,*66
$GPGSA,A,3,01,02,03,04,05,06,07,08,09,10,11,12,1.0,1.0,1.0*30
$GPRMC,082051.853,A,3115.329,N,07542.103,E,043.7,092.2,140420,000.0,W*78
$GPGGA,082052.853,3115.328,N,07542.117,E,1,12,1.0,0.0,M,0.0,M,,*61
$GPGSA,A,3,01,02,03,04,05,06,07,08,09,10,11,12,1.0,1.0,1.0*30
$GPRMC,082052.853,A,3115.328,N,07542.117,E,040.7,078.7,140420,000.0,W*7D
$GPGGA,082053.853,3115.331,N,07542.130,E,1,12,1.0,0.0,M,0.0,M,,*6D
$GPGSA,A,3,01,02,03,04,05,06,07,08,09,10,11,12,1.0,1.0,1.0*30
$GPRMC,082053.853,A,3115.331,N,07542.130,E,047.9,083.9,140420,000.0,W*72
$GPGGA,082054.853,3115.333,N,07542.145,E,1,12,1.0,0.0,M,0.0,M,,*6A
$GPGSA,A,3,01,02,03,04,05,06,07,08,09,10,11,12,1.0,1.0,1.0*30
$GPRMC,082054.853,A,3115.333,N,07542.145,E,039.8,094.9,140420,000.0,W*7B
$GPGGA,082055.853,3115.331,N,07542.158,E,1,12,1.0,0.0,M,0.0,M,,*65
$GPGSA,A,3,01,02,03,04,05,06,07,08,09,10,11,12,1.0,1.0,1.0*30
$GPRMC,082055.853,A,3115.331,N,07542.158,E,022.2,098.8,140420,000.0,W*79
$GPGGA,082056.853,3115.330,N,07542.165,E,1,12,1.0,0.0,M,0.0,M,,*69
$GPGSA,A,3,01,02,03,04,05,06,07,08,09,10,11,12,1.0,1.0,1.0*30
$GPRMC,082056.853,A,3115.330,N,07542.165,E,022.8,087.9,140420,000.0,W*70
$GPGGA,082057.853,3115.331,N,07542.172,E,1,12,1.0,0.0,M,0.0,M,,*6F
$GPGSA,A,3,01,02,03,04,05,06,07,08,09,10,11,12,1.0,1.0,1.0*30
$GPRMC,082057.853,A,3115.331,N,07542.172,E,024.8,092.0,140420,000.0,W*7D
$GPGGA,082058.853,3115.330,N,07542.180,E,1,12,1.0,0.0,M,0.0,M,,*6C
$GPGSA,A,3,01,02,03,04,05,06,07,08,09,10,11,12,1.0,1.0,1.0*30
$GPRMC,082058.853,A,3115.330,N,07542.180,E,031.1,082.1,140420,000.0,W*73
$GPGGA,082059.853,3115.332,N,07542.190,E,1,12,1.0,0.0,M,0.0,M,,*6E
$GPGSA,A,3,01,02,03,04,05,06,07,08,09,10,11,12,1.0,1.0,1.0*30
$GPRMC,082059.853,A,3115.332,N,07542.190,E,024.8,090.0,140420,000.0,W*7E
$GPGGA,082100.853,3115.332,N,07542.198,E,1,12,1.0,0.0,M,0.0,M,,*6B
$GPGSA,A,3,01,02,03,04,05,06,07,08,09,10,11,12,1.0,1.0,1.0*30
$GPRMC,082100.853,A,3115.332,N,07542.198,E,025.0,095.9,140420,000.0,W*7E
$GPGGA,082101.853,3115.331,N,07542.206,E,1,12,1.0,0.0,M,0.0,M,,*6D
$GPGSA,A,3,01,02,03,04,05,06,07,08,09,10,11,12,1.0,1.0,1.0*30
$GPRMC,082101.853,A,3115.331,N,07542.206,E,023.8,088.0,140420,000.0,W*73
$GPGGA,082102.853,3115.331,N,07542.214,E,1,12,1.0,0.0,M,0.0,M,,*6D
$GPGSA,A,3,01,02,03,04,05,06,07,08,09,10,11,12,1.0,1.0,1.0*30
$GPRMC,082102.853,A,3115.331,N,07542.214,E,023.8,088.0,140420,000.0,W*73
$GPGGA,082103.853,3115.331,N,07542.222,E,1,12,1.0,0.0,M,0.0,M,,*69
$GPGSA,A,3,01,02,03,04,05,06,07,08,09,10,11,12,1.0,1.0,1.0*30
$GPRMC,082103.853,A,3115.331,N,07542.222,E,022.8,120.4,140420,000.0,W*71
$GPGGA,082104.853,3115.328,N,07542.228,E,1,12,1.0,0.0,M,0.0,M,,*6C
$GPGSA,A,3,01,02,03,04,05,06,07,08,09,10,11,12,1.0,1.0,1.0*30
$GPRMC,082104.853,A,3115.328,N,07542.228,E,021.4,108.9,140420,000.0,W*7C
$GPGGA,082105.853,3115.326,N,07542.234,E,1,12,1.0,0.0,M,0.0,M,,*6E
$GPGSA,A,3,01,02,03,04,05,06,07,08,09,10,11,12,1.0,1.0,1.0*30
$GPRMC,082105.853,A,3115.326,N,07542.234,E,018.9,047.3,140420,000.0,W*79
$GPGGA,082106.853,3115.329,N,07542.239,E,1,12,1.0,0.0,M,0.0,M,,*6F
$GPGSA,A,3,01,02,03,04,05,06,07,08,09,10,11,12,1.0,1.0,1.0*30
$GPRMC,082106.853,A,3115.329,N,07542.239,E,011.1,348.0,140420,000.0,W*76
$GPGGA,082107.853,3115.333,N,07542.238,E,1,12,1.0,0.0,M,0.0,M,,*64
$GPGSA,A,3,01,02,03,04,05,06,07,08,09,10,11,12,1.0,1.0,1.0*30
$GPRMC,082107.853,A,3115.333,N,07542.238,E,013.8,325.7,140420,000.0,W*7A
$GPGGA,082108.853,3115.336,N,07542.236,E,1,12,1.0,0.0,M,0.0,M,,*60
$GPGSA,A,3,01,02,03,04,05,06,07,08,09,10,11,12,1.0,1.0,1.0*30
$GPRMC,082108.853,A,3115.336,N,07542.236,E,008.2,282.1,140420,000.0,W*74
$GPGGA,082109.853,3115.336,N,07542.233,E,1,12,1.0,0.0,M,0.0,M,,*64
$GPGSA,A,3,01,02,03,04,05,06,07,08,09,10,11,12,1.0,1.0,1.0*30
$GPRMC,082109.853,A,3115.336,N,07542.233,E,010.7,335.0,140420,000.0,W*70
$GPGGA,082110.853,3115.339,N,07542.232,E,1,12,1.0,0.0,M,0.0,M,,*62
$GPGSA,A,3,01,02,03,04,05,06,07,08,09,10,11,12,1.0,1.0,1.0*30
$GPRMC,082110.853,A,3115.339,N,07542.232,E,012.9,026.0,140420,000.0,W*7B
$GPGGA,082111.853,3115.342,N,07542.234,E,1,12,1.0,0.0,M,0.0,M,,*69
$GPGSA,A,3,01,02,03,04,05,06,07,08,09,10,11,12,1.0,1.0,1.0*30
$GPRMC,082111.853,A,3115.342,N,07542.234,E,021.5,026.0,140420,000.0,W*7C
$GPGGA,082112.853,3115.348,N,07542.236,E,1,12,1.0,0.0,M,0.0,M,,*62
$GPGSA,A,3,01,02,03,04,05,06,07,08,09,10,11,12,1.0,1.0,1.0*30
$GPRMC,082112.853,A,3115.348,N,07542.236,E,024.0,063.9,140420,000.0,W*7F
$GPGGA,082113.853,3115.351,N,07542.243,E,1,12,1.0,0.0,M,0.0,M,,*69
$GPGSA,A,3,01,02,03,04,05,06,07,08,09,10,11,12,1.0,1.0,1.0*30
$GPRMC,082113.853,A,3115.351,N,07542.243,E,025.8,086.2,140420,000.0,W*7D
$GPGGA,082114.853,3115.352,N,07542.251,E,1,12,1.0,0.0,M,0.0,M,,*6E
$GPGSA,A,3,01,02,03,04,05,06,07,08,09,10,11,12,1.0,1.0,1.0*30
$GPRMC,082114.853,A,3115.352,N,07542.251,E,021.1,082.3,140420,000.0,W*72
$GPGGA,082115.853,3115.353,N,07542.258,E,1,12,1.0,0.0,M,0.0,M,,*67
$GPGSA,A,3,01,02,03,04,05,06,07,08,09,10,11,12,1.0,1.0,1.0*30
$GPRMC,082115.853,A,3115.353,N,07542.258,E,025.8,086.2,140420,000.0,W*73
$GPGGA,082116.853,3115.353,N,07542.266,E,1,12,1.0,0.0,M,0.0,M,,*69
$GPGSA,A,3,01,02,03,04,05,06,07,08,09,10,11,12,1.0,1.0,1.0*30
$GPRMC,082116.853,A,3115.353,N,07542.266,E,030.3,074.1,140420,000.0,W*7C
$GPGGA,082117.853,3115.356,N,07542.276,E,1,12,1.0,0.0,M,0.0,M,,*6C
$GPGSA,A,3,01,02,03,04,05,06,07,08,09,10,11,12,1.0,1.0,1.0*30
$GPRMC,082117.853,A,3115.356,N,07542.276,E,025.8,086.2,140420,000.0,W*78
$GPGGA,082118.853,3115.356,N,07542.284,E,1,12,1.0,0.0,M,0.0,M,,*6E
$GPGSA,A,3,01,02,03,04,05,06,07,08,09,10,11,12,1.0,1.0,1.0*30
$GPRMC,082118.853,A,3115.356,N,07542.284,E,035.8,085.9,140420,000.0,W*73
$GPGGA,082119.853,3115.357,N,07542.296,E,1,12,1.0,0.0,M,0.0,M,,*6D
$GPGSA,A,3,01,02,03,04,05,06,07,08,09,10,11,12,1.0,1.0,1.0*30
$GPRMC,082119.853,A,3115.357,N,07542.296,E,044.2,082.2,140420,000.0,W*70
$GPGGA,082120.853,3115.359,N,07542.310,E,1,12,1.0,0.0,M,0.0,M,,*66
$GPGSA,A,3,01,02,03,04,05,06,07,08,09,10,11,12,1.0,1.0,1.0*30
$GPRMC,082120.853,A,3115.359,N,07542.310,E,022.8,082.1,140420,000.0,W*72
$GPGGA,082121.853,3115.360,N,07542.317,E,1,12,1.0,0.0,M,0.0,M,,*6A
$GPGSA,A,3,01,02,03,04,05,06,07,08,09,10,11,12,1.0,1.0,1.0*30
$GPRMC,082121.853,A,3115.360,N,07542.317,E,034.6,078.6,140420,000.0,W*75
$GPGGA,082122.853,3115.362,N,07542.328,E,1,12,1.0,0.0,M,0.0,M,,*67
$GPGSA,A,3,01,02,03,04,05,06,07,08,09,10,11,12,1.0,1.0,1.0*30
$GPRMC,082122.853,A,3115.362,N,07542.328,E,024.8,090.0,140420,000.0,W*77
$GPGGA,082123.853,3115.362,N,07542.336,E,1,12,1.0,0.0,M,0.0,M,,*69
$GPGSA,A,3,01,02,03,04,05,06,07,08,09,10,11,12,1.0,1.0,1.0*30
$GPRMC,082123.853,A,3115.362,N,07542.336,E,024.9,086.1,140420,000.0,W*7E
$GPGGA,082124.853,3115.363,N,07542.344,E,1,12,1.0,0.0,M,0.0,M,,*6A
$GPGSA,A,3,01,02,03,04,05,06,07,08,09,10,11,12,1.0,1.0,1.0*30
$GPRMC,082124.853,A,3115.363,N,07542.344,E,023.1,081.5,140420,000.0,W*71
$GPGGA,082125.853,3115.364,N,07542.352,E,1,12,1.0,0.0,M,0.0,M,,*6B
$GPGSA,A,3,01,02,03,04,05,06,07,08,09,10,11,12,1.0,1.0,1.0*30
$GPRMC,082125.853,A,3115.364,N,07542.352,E,024.5,098.7,140420,000.0,W*79
$GPGGA,082126.853,3115.363,N,07542.359,E,1,12,1.0,0.0,M,0.0,M,,*64
$GPGSA,A,3,01,02,03,04,05,06,07,08,09,10,11,12,1.0,1.0,1.0*30
$GPRMC,082126.853,A,3115.363,N,07542.359,E,016.9,156.3,140420,000.0,W*7C
$GPGGA,082127.853,3115.358,N,07542.361,E,1,12,1.0,0.0,M,0.0,M,,*66
$GPGSA,A,3,01,02,03,04,05,06,07,08,09,10,11,12,1.0,1.0,1.0*30
$GPRMC,082127.853,A,3115.358,N,07542.361,E,019.5,069.2,140420,000.0,W*71
$GPGGA,082128.853,3115.361,N,07542.367,E,1,12,1.0,0.0,M,0.0,M,,*65
$GPGSA,A,3,01,02,03,04,05,06,07,08,09,10,11,12,1.0,1.0,1.0*30
$GPRMC,082128.853,A,3115.361,N,07542.367,E,016.5,036.9,140420,000.0,W*7C
$GPGGA,082129.853,3115.365,N,07542.370,E,1,12,1.0,0.0,M,0.0,M,,*66
$GPGSA,A,3,01,02,03,04,05,06,07,08,09,10,11,12,1.0,1.0,1.0*30
$GPRMC,082129.853,A,3115.365,N,07542.370,E,012.1,320.7,140420,000.0,W*75
$GPGGA,082130.853,3115.367,N,07542.368,E,1,12,1.0,0.0,M,0.0,M,,*65
$GPGSA,A,3,01,02,03,04,05,06,07,08,09,10,11,12,1.0,1.0,1.0*30
$GPRMC,082130.853,A,3115.367,N,07542.368,E,009.9,318.8,140420,000.0,W*70
$GPGGA,082131.853,3115.369,N,07542.366,E,1,12,1.0,0.0,M,0.0,M,,*64
$GPGSA,A,3,01,02,03,04,05,06,07,08,09,10,11,12,1.0,1.0,1.0*30
$GPRMC,082131.853,A,3115.369,N,07542.366,E,017.3,015.4,140420,000.0,W*76
$GPGGA,082132.853,3115.374,N,07542.367,E,1,12,1.0,0.0,M,0.0,M,,*6A
$GPGSA,A,3,01,02,03,04,05,06,07,08,09,10,11,12,1.0,1.0,1.0*30
$GPRMC,082132.853,A,3115.374,N,07542.367,E,037.9,024.1,140420,000.0,W*77
$GPGGA,082133.853,3115.384,N,07542.372,E,1,12,1.0,0.0,M,0.0,M,,*60
$GPGSA,A,3,01,02,03,04,05,06,07,08,09,10,11,12,1.0,1.0,1.0*30
$GPRMC,082133.853,A,3115.384,N,07542.372,E,025.8,026.0,140420,000.0,W*7C
$GPGGA,082134.853,3115.391,N,07542.375,E,1,12,1.0,0.0,M,0.0,M,,*64
$GPGSA,A,3,01,02,03,04,05,06,07,08,09,10,11,12,1.0,1.0,1.0*30
$GPRMC,082134.853,A,3115.391,N,07542.375,E,041.8,035.5,140420,000.0,W*7D
$GPGGA,082135.853,3115.400,N,07542.382,E,1,12,1.0,0.0,M,0.0,M,,*62
$GPGSA,A,3,01,02,03,04,05,06,07,08,09,10,11,12,1.0,1.0,1.0*30
$GPRMC,082135.853,A,3115.400,N,07542.382,E,039.0,015.3,140420,000.0,W*78
$GPGGA,082136.853,3115.411,N,07542.385,E,1,12,1.0,0.0,M,0.0,M,,*66
$GPGSA,A,3,01,02,03,04,05,06,07,08,09,10,11,12,1.0,1.0,1.0*30
$GPRMC,082136.853,A,3115.411,N,07542.385,E,052.9,034.4,140420,000.0,W*7C
$GPGGA,082137.853,3115.424,N,07542.393,E,1,12,1.0,0.0,M,0.0,M,,*66
$GPGSA,A,3,01,02,03,04,05,06,07,08,09,10,11,12,1.0,1.0,1.0*30
$GPRMC,082137.853,A,3115.424,N,07542.393,E,033.0,022.9,140420,000.0,W*78
$GPGGA,082138.853,3115.432,N,07542.397,E,1,12,1.0,0.0,M,0.0,M,,*6A
$GPGSA,A,3,01,02,03,04,05,06,07,08,09,10,11,12,1.0,1.0,1.0*30
$GPRMC,082138.853,A,3115.432,N,07542.397,E,061.9,356.8,140420,000.0,W*7B
$GPGGA,082139.853,3115.449,N,07542.396,E,1,12,1.0,0.0,M,0.0,M,,*66
$GPGSA,A,3,01,02,03,04,05,06,07,08,09,10,11,12,1.0,1.0,1.0*30
$GPRMC,082139.853,A,3115.449,N,07542.396,E,052.6,003.8,140420,000.0,W*7B
$GPGGA,082140.853,3115.464,N,07542.397,E,1,12,1.0,0.0,M,0.0,M,,*66
$GPGSA,A,3,01,02,03,04,05,06,07,08,09,10,11,12,1.0,1.0,1.0*30
$GPRMC,082140.853,A,3115.464,N,07542.397,E,155.7,358.4,140420,000.0,W*7D
$GPGGA,082141.853,3115.507,N,07542.396,E,1,12,1.0,0.0,M,0.0,M,,*62
$GPGSA,A,3,01,02,03,04,05,06,07,08,09,10,11,12,1.0,1.0,1.0*30
$GPRMC,082141.853,A,3115.507,N,07542.396,E,031.3,016.3,140420,000.0,W*70
$GPGGA,082142.853,3115.516,N,07542.398,E,1,12,1.0,0.0,M,0.0,M,,*6F
$GPGSA,A,3,01,02,03,04,05,06,07,08,09,10,11,12,1.0,1.0,1.0*30
$GPRMC,082142.853,A,3115.516,N,07542.398,E,081.7,092.8,140420,000.0,W*75
$GPGGA,082143.853,3115.514,N,07542.425,E,1,12,1.0,0.0,M,0.0,M,,*6D
$GPGSA,A,3,01,02,03,04,05,06,07,08,09,10,11,12,1.0,1.0,1.0*30
$GPRMC,082143.853,A,3115.514,N,07542.425,E,050.6,087.1,140420,000.0,W*77
$GPGGA,082144.853,3115.515,N,07542.441,E,1,12,1.0,0.0,M,0.0,M,,*69
$GPGSA,A,3,01,02,03,04,05,06,07,08,09,10,11,12,1.0,1.0,1.0*30
$GPRMC,082144.853,A,3115.515,N,07542.441,E,082.3,091.8,140420,000.0,W*77
$GPGGA,082145.853,3115.514,N,07542.468,E,1,12,1.0,0.0,M,0.0,M,,*62
$GPGSA,A,3,01,02,03,04,05,06,07,08,09,10,11,12,1.0,1.0,1.0*30
$GPRMC,082145.853,A,3115.514,N,07542.468,E,056.2,082.2,140420,000.0,W*7C
$GPGGA,082146.853,3115.517,N,07542.486,E,1,12,1.0,0.0,M,0.0,M,,*62
$GPGSA,A,3,01,02,03,04,05,06,07,08,09,10,11,12,1.0,1.0,1.0*30
$GPRMC,082146.853,A,3115.517,N,07542.486,E,039.5,074.9,140420,000.0,W*70
$GPGGA,082147.853,3115.520,N,07542.498,E,1,12,1.0,0.0,M,0.0,M,,*68
$GPGSA,A,3,01,02,03,04,05,06,07,08,09,10,11,12,1.0,1.0,1.0*30
$GPRMC,082147.853,A,3115.520,N,07542.498,E,057.2,077.9,140420,000.0,W*76
$GPGGA,082148.853,3115.524,N,07542.516,E,1,12,1.0,0.0,M,0.0,M,,*64
$GPGSA,A,3,01,02,03,04,05,06,07,08,09,10,11,12,1.0,1.0,1.0*30
$GPRMC,082148.853,A,3115.524,N,07542.516,E,037.7,058.7,140420,000.0,W*7A
$GPGGA,082149.853,3115.530,N,07542.526,E,1,12,1.0,0.0,M,0.0,M,,*63
$GPGSA,A,3,01,02,03,04,05,06,07,08,09,10,11,12,1.0,1.0,1.0*30
$GPRMC,082149.853,A,3115.530,N,07542.526,E,056.8,064.4,140420,000.0,W*79
$GPGGA,082150.853,3115.538,N,07542.542,E,1,12,1.0,0.0,M,0.0,M,,*61
$GPGSA,A,3,01,02,03,04,05,06,07,08,09,10,11,12,1.0,1.0,1.0*30
$GPRMC,082150.853,A,3115.538,N,07542.542,E,030.1,037.5,140420,000.0,W*75
$GPGGA,082151.853,3115.545,N,07542.548,E,1,12,1.0,0.0,M,0.0,M,,*60
$GPGSA,A,3,01,02,03,04,05,06,07,08,09,10,11,12,1.0,1.0,1.0*30
$GPRMC,082151.853,A,3115.545,N,07542.548,E,034.9,017.2,140420,000.0,W*7D
$GPGGA,082152.853,3115.554,N,07542.551,E,1,12,1.0,0.0,M,0.0,M,,*6B
$GPGSA,A,3,01,02,03,04,05,06,07,08,09,10,11,12,1.0,1.0,1.0*30
$GPRMC,082152.853,A,3115.554,N,07542.551,E,036.1,341.5,140420,000.0,W*7B
$GPGGA,082153.853,3115.564,N,07542.547,E,1,12,1.0,0.0,M,0.0,M,,*6E
$GPGSA,A,3,01,02,03,04,05,06,07,08,09,10,11,12,1.0,1.0,1.0*30
$GPRMC,082153.853,A,3115.564,N,07542.547,E,039.9,316.6,140420,000.0,W*78
$GPGGA,082154.853,3115.572,N,07542.539,E,1,12,1.0,0.0,M,0.0,M,,*67
$GPGSA,A,3,01,02,03,04,05,06,07,08,09,10,11,12,1.0,1.0,1.0*30
$GPRMC,082154.853,A,3115.572,N,07542.539,E,017.3,306.0,140420,000.0,W*70
$GPGGA,082155.853,3115.575,N,07542.535,E,1,12,1.0,0.0,M,0.0,M,,*6D
$GPGSA,A,3,01,02,03,04,05,06,07,08,09,10,11,12,1.0,1.0,1.0*30
$GPRMC,082155.853,A,3115.575,N,07542.535,E,028.8,306.5,140420,000.0,W*78
$GPGGA,082156.853,3115.581,N,07542.528,E,1,12,1.0,0.0,M,0.0,M,,*69
$GPGSA,A,3,01,02,03,04,05,06,07,08,09,10,11,12,1.0,1.0,1.0*30
$GPRMC,082156.853,A,3115.581,N,07542.528,E,040.7,300.1,140420,000.0,W*7F
$GPGGA,082157.853,3115.587,N,07542.517,E,1,12,1.0,0.0,M,0.0,M,,*62
$GPGSA,A,3,01,02,03,04,05,06,07,08,09,10,11,12,1.0,1.0,1.0*30
$GPRMC,082157.853,A,3115.587,N,07542.517,E,029.6,305.3,140420,000.0,W*7D
$GPGGA,082158.853,3115.592,N,07542.510,E,1,12,1.0,0.0,M,0.0,M,,*6E
$GPGSA,A,3,01,02,03,04,05,06,07,08,09,10,11,12,1.0,1.0,1.0*30
$GPRMC,082158.853,A,3115.592,N,07542.510,E,017.6,317.5,140420,000.0,W*79
$GPGGA,082159.853,3115.596,N,07542.506,E,1,12,1.0,0.0,M,0.0,M,,*6C
$GPGSA,A,3,01,02,03,04,05,06,07,08,09,10,11,12,1.0,1.0,1.0*30
$GPRMC,082159.853,A,3115.596,N,07542.506,E,015.5,315.8,140420,000.0,W*75
$GPGGA,082200.853,3115.599,N,07542.503,E,1,12,1.0,0.0,M,0.0,M,,*69
$GPGSA,A,3,01,02,03,04,05,06,07,08,09,10,11,12,1.0,1.0,1.0*30
$GPRMC,082200.853,A,3115.599,N,07542.503,E,015.5,315.8,140420,000.0,W*70
